$PMGNST,05.40,2,T,961,08.3,+04583,00*4C
$GPGLL,3400.7951,N,11829.9467,W,235959.000,A*25
$GPGGA,235959.000,A,3400.7951,N,11829.9467,W,2,04,20.5,00269,M,,,,*50
$GPRMC,235959.000,A,3400.7951,N,11829.9467,W,0.0,0.0,011116,0.0,W*6d
$GPGSA,A,2,27,04,08,24,,,,,,,,,20.5,20.5,*12
$GPGSV,3,1,10,13,81,052,,04,58,240,39,23,44,064,,24,43,188,36*75
$GPGSV,3,2,10,02,42,295,,27,34,177,40,20,21,113,,16,12,058,*7F
$GPGSV,3,3,10,08,07,189,38,10,05,293,,131,11,117,,120,28,209,*76
$PMGNST,05.40,2,T,961,08.3,+04583,00*4C
$GPGLL,3400.8431,N,11829.8987,W,235959.000,A*23
$GPGGA,235959.000,A,3400.8431,N,11829.8987,W,2,04,20.5,00269,M,,,,*56
$GPRMC,235959.000,A,3400.8431,N,11829.8987,W,0.0,0.0,011116,0.0,W*6b
$GPGSA,A,2,27,04,08,24,,,,,,,,,20.5,20.5,*12
$GPGSV,3,1,10,13,81,052,,04,58,240,39,23,44,064,,24,43,188,36*75
$GPGSV,3,2,10,02,42,295,,27,34,177,40,20,21,113,,16,12,058,*7F
$GPGSV,3,3,10,08,07,189,38,10,05,293,,131,11,117,,120,28,209,*76
$PMGNST,05.40,2,T,961,08.3,+04583,00*4C
$GPGLL,3400.8911,N,11829.8507,W,235959.000,A*28
$GPGGA,235959.000,A,3400.8911,N,11829.8507,W,2,04,20.5,00269,M,,,,*5d
$GPRMC,235959.000,A,3400.8911,N,11829.8507,W,0.0,0.0,011116,0.0,W*60
$GPGSA,A,2,27,04,08,24,,,,,,,,,20.5,20.5,*12
$GPGSV,3,1,10,13,81,052,,04,58,240,39,23,44,064,,24,43,188,36*75
$GPGSV,3,2,10,02,42,295,,27,34,177,40,20,21,113,,16,12,058,*7F
$GPGSV,3,3,10,08,07,189,38,10,05,293,,131,11,117,,120,28,209,*76
$PMGNST,05.40,2,T,961,08.3,+04583,00*4C
$GPGLL,3400.9391,N,11829.8027,W,235959.000,A*2c
$GPGGA,235959.000,A,3400.9391,N,11829.8027,W,2,04,20.5,00269,M,,,,*59
$GPRMC,235959.000,A,3400.9391,N,11829.8027,W,0.0,0.0,011116,0.0,W*64
$GPGSA,A,2,27,04,08,24,,,,,,,,,20.5,20.5,*12
$GPGSV,3,1,10,13,81,052,,04,58,240,39,23,44,064,,24,43,188,36*75
$GPGSV,3,2,10,02,42,295,,27,34,177,40,20,21,113,,16,12,058,*7F
$GPGSV,3,3,10,08,07,189,38,10,05,293,,131,11,117,,120,28,209,*76
$PMGNST,05.40,2,T,961,08.3,+04583,00*4C
$GPGLL,3401.0351,N,11829.7067,W,235959.000,A*23
$GPGGA,235959.000,A,3401.0351,N,11829.7067,W,2,04,20.5,00269,M,,,,*56
$GPRMC,235959.000,A,3401.0351,N,11829.7067,W,0.0,0.0,011116,0.0,W*6b
$GPGSA,A,2,27,04,08,24,,,,,,,,,20.5,20.5,*12
$GPGSV,3,1,10,13,81,052,,04,58,240,39,23,44,064,,24,43,188,36*75
$GPGSV,3,2,10,02,42,295,,27,34,177,40,20,21,113,,16,12,058,*7F
$GPGSV,3,3,10,08,07,189,38,10,05,293,,131,11,117,,120,28,209,*76
$PMGNST,05.40,2,T,961,08.3,+04583,00*4C
$GPGLL,3401.1791,N,11829.5627,W,235959.000,A*2a
$GPGGA,235959.000,A,3401.1791,N,11829.5627,W,2,04,20.5,00269,M,,,,*5f
$GPRMC,235959.000,A,3401.1791,N,11829.5627,W,0.0,0.0,011116,0.0,W*62
$GPGSA,A,2,27,04,08,24,,,,,,,,,20.5,20.5,*12
$GPGSV,3,1,10,13,81,052,,04,58,240,39,23,44,064,,24,43,188,36*75
$GPGSV,3,2,10,02,42,295,,27,34,177,40,20,21,113,,16,12,058,*7F
$GPGSV,3,3,10,08,07,189,38,10,05,293,,131,11,117,,120,28,209,*76
$PMGNST,05.40,2,T,961,08.3,+04583,00*4C
$GPGLL,3401.3711,N,11829.3707,W,235959.000,A*25
$GPGGA,235959.000,A,3401.3711,N,11829.3707,W,2,04,20.5,00269,M,,,,*50
$GPRMC,235959.000,A,3401.3711,N,11829.3707,W,0.0,0.0,011116,0.0,W*6d
$GPGSA,A,2,27,04,08,24,,,,,,,,,20.5,20.5,*12
$GPGSV,3,1,10,13,81,052,,04,58,240,39,23,44,064,,24,43,188,36*75
$GPGSV,3,2,10,02,42,295,,27,34,177,40,20,21,113,,16,12,058,*7F
$GPGSV,3,3,10,08,07,189,38,10,05,293,,131,11,117,,120,28,209,*76
$PMGNST,05.40,2,T,961,08.3,+04583,00*4C
$GPGLL,3401.6111,N,11829.1307,W,235959.000,A*20
$GPGGA,235959.000,A,3401.6111,N,11829.1307,W,2,04,20.5,00269,M,,,,*55
$GPRMC,235959.000,A,3401.6111,N,11829.1307,W,0.0,0.0,011116,0.0,W*68
$GPGSA,A,2,27,04,08,24,,,,,,,,,20.5,20.5,*12
$GPGSV,3,1,10,13,81,052,,04,58,240,39,23,44,064,,24,43,188,36*75
$GPGSV,3,2,10,02,42,295,,27,34,177,40,20,21,113,,16,12,058,*7F
$GPGSV,3,3,10,08,07,189,38,10,05,293,,131,11,117,,120,28,209,*76
$PMGNST,05.40,2,T,961,08.3,+04583,00*4C
$GPGLL,3401.7551,N,11828.9867,W,235959.000,A*25
$GPGGA,235959.000,A,3401.7551,N,11828.9867,W,2,04,20.5,00269,M,,,,*50
$GPRMC,235959.000,A,3401.7551,N,11828.9867,W,0.0,0.0,011116,0.0,W*6d
$GPGSA,A,2,27,04,08,24,,,,,,,,,20.5,20.5,*12
$GPGSV,3,1,10,13,81,052,,04,58,240,39,23,44,064,,24,43,188,36*75
$GPGSV,3,2,10,02,42,295,,27,34,177,40,20,21,113,,16,12,058,*7F
$GPGSV,3,3,10,08,07,189,38,10,05,293,,131,11,117,,120,28,209,*76
$PMGNST,05.40,2,T,961,08.3,+04583,00*4C
$GPGLL,3400.7951,N,11829.9467,W,235959.000,A*25
$GPGGA,235959.000,A,3400.7951,N,11829.9467,W,2,04,20.5,00269,M,,,,*50
$GPRMC,235959.000,A,3400.7951,N,11829.9467,W,0.0,0.0,011116,0.0,W*6d
$GPGSA,A,2,27,04,08,24,,,,,,,,,20.5,20.5,*12
$GPGSV,3,1,10,13,81,052,,04,58,240,39,23,44,064,,24,43,188,36*75
$GPGSV,3,2,10,02,42,295,,27,34,177,40,20,21,113,,16,12,058,*7F
$GPGSV,3,3,10,08,07,189,38,10,05,293,,131,11,117,,120,28,209,*76
$PMGNST,05.40,2,T,961,08.3,+04583,00*4C
$GPGLL,3402.0911,N,11828.6507,W,235959.000,A*2d
$GPGGA,235959.000,A,3402.0911,N,11828.6507,W,2,04,20.5,00269,M,,,,*58
$GPRMC,235959.000,A,3402.0911,N,11828.6507,W,0.0,0.0,011116,0.0,W*65
$GPGSA,A,2,27,04,08,24,,,,,,,,,20.5,20.5,*12
$GPGSV,3,1,10,13,81,052,,04,58,240,39,23,44,064,,24,43,188,36*75
$GPGSV,3,2,10,02,42,295,,27,34,177,40,20,21,113,,16,12,058,*7F
$GPGSV,3,3,10,08,07,189,38,10,05,293,,131,11,117,,120,28,209,*76


